Nom,Insee,cp,arr,Canton,epci,pop,long,lat,alti,surf
Ahuy,21003,21121,2,Fontaine-lès-Dijon,Dijon Métropole,1695,47.36917,5.02139,290,6.50
Aiserey,21005,21110,2,Genlis,CC de la Plaine Dijonnaise,1489,47.17278,5.16278,197,10.47
Arc-sur-Tille,21021,21560,2,Saint-Apollinaire,CC Norge et Tille,2590,47.34417,5.19028,220,22.81
Arnay-le-Duc,21023,21230,1,Arnay-le-Duc,CC du Pays Arnay Liernais,1355,47.13250,4.49000,360,12.05
Asnières-lès-Dijon,21027,21380,2,Fontaine-lès-Dijon,CC Norge et Tille,1320,47.38611,5.04389,330,4.58
Auxonne,21038,21130,2,Auxonne,CC Auxonne Pontailler Val de Saône,7592,47.19417,5.38833,185,40.50
Beaune,21054,21200,1,Beaune,CA Beaune, Côte et Sud - Communauté Beaune-Chagny-Nolay,20233,47.02417,4.84028,220,31.15
Belleneuve,21060,21310,2,Saint-Apollinaire,CC Mirebellois et Fontenois,1575,47.35472,5.28139,200,14.65
Bligny-lès-Beaune,21086,21200,1,Ladoix-Serrigny,CA Beaune, Côte et Sud - Communauté Beaune-Chagny-Nolay,1273,46.98306,4.82639,215,7.26
Brazey-en-Plaine,21103,21470,1,Brazey-en-Plaine,CC Rives de Saône,2425,47.13500,5.21694,184,25.51
Bressey-sur-Tille,21105,21560,2,Chevigny-Saint-Sauveur,Dijon Métropole,1110,47.31000,5.18194,212,7.38
Châtillon-sur-Seine,21154,21400,3,Châtillon-sur-Seine,CC du Pays Châtillonnais,5404,47.85917,4.57444,230,33.27
Chenôve,21166,21300,2,Chenôve,Dijon Métropole,14299,47.29611,5.01444,280,7.57
Chevigny-Saint-Sauveur,21171,21800,2,Chevigny-Saint-Sauveur,Dijon Métropole,10895,47.30222,5.13556,215,11.99
Collonges et Premières,21183,21110,2,Genlis,CC de la Plaine Dijonnaise,1067,47.22528,5.26722,195,9.36
Couchey,21200,21160,1,Longvic,CC de Gevrey-Chambertin et de Nuits-Saint-Georges,1108,47.26028,4.97944,290,12.60
Couternon,21209,21560,2,Saint-Apollinaire,CC Norge et Tille,1903,47.33417,5.15111,217,6.92
Daix,21223,21121,2,Fontaine-lès-Dijon,Dijon Métropole,1520,47.35278,4.99861,340,11.78
Dijon [4],21231,21000,2,Dijon,Dijon Métropole,159941,47.32250,5.03556,245,41.50
Fénay,21263,21600,2,Longvic,Dijon Métropole,1724,47.23306,5.06361,230,10.54
Fleurey-sur-Ouche,21273,21410,2,Talant,CC Ouche et Montagne,1498,47.31139,4.85917,280,30.24
Fontaine-lès-Dijon,21278,21121,2,Fontaine-lès-Dijon,Dijon Métropole,9032,47.34444,5.01917,300,4.43
Genlis,21292,21110,2,Genlis,CC de la Plaine Dijonnaise,5125,47.24139,5.22056,199,12.20
Gevrey-Chambertin,21295,21220,1,Longvic,CC de Gevrey-Chambertin et de Nuits-Saint-Georges,2983,47.22583,4.96861,280,25.07
Hauteville-lès-Dijon,21315,21121,2,Fontaine-lès-Dijon,Dijon Métropole,1206,47.36500,4.99500,390,9.01
Is-sur-Tille,21317,21120,2,Is-sur-Tille,CC des Vallées de la Tille et de l'Ignon,4308,47.52361,5.11278,280,22.48
Labergement-lès-Seurre,21332,21820,1,Brazey-en-Plaine,CC Rives de Saône,1012,46.99472,5.09194,200,28.98
Ladoix-Serrigny,21606,21550,1,Ladoix-Serrigny,CA Beaune, Côte et Sud - Communauté Beaune-Chagny-Nolay,1783,47.06528,4.88833,215,24.79
Lamarche-sur-Saône,21337,21760,2,Auxonne,CC Auxonne Pontailler Val de Saône,1375,47.27000,5.38556,190,33.82
Longchamp,21351,21110,2,Genlis,CC de la Plaine Dijonnaise,1168,47.26000,5.28806,205,16.40
Longeault-Pluvault,21352,21110,2,Genlis,CC de la Plaine Dijonnaise,1154,47.21944,5.25167,195,1.23
Longecourt-en-Plaine,21353,21110,2,Genlis,CC de la Plaine Dijonnaise,1185,47.20000,5.15056,202,9.98
Longvic,21355,21600,2,Longvic,Dijon Métropole,8787,47.28500,5.06306,226,10.41
Losne,21356,21170,1,Brazey-en-Plaine,CC Rives de Saône,1712,47.09861,5.26389,180,22.78
Marcilly-sur-Tille,21383,21120,2,Is-sur-Tille,CC des Vallées de la Tille et de l'Ignon,1734,47.51944,5.13278,280,7.18
Marsannay-la-Côte,21390,21160,2,Chenôve,Dijon Métropole,5440,47.26889,4.98944,271,12.76
Messigny-et-Vantoux,21408,21380,2,Fontaine-lès-Dijon,CC Forêts, Seine et Suzon,1694,47.40639,5.01778,310,33.98
Meursault,21412,21190,1,Ladoix-Serrigny,CA Beaune, Côte et Sud - Communauté Beaune-Chagny-Nolay,1376,46.97583,4.77389,240,16.14
Mirebeau-sur-Bèze,21416,21310,2,Saint-Apollinaire,CC Mirebellois et Fontenois,1937,47.39917,5.31833,200,22.23
Montbard,21425,21500,3,Montbard,CC du Montbardois,4751,47.62583,4.34139,211,46.35
Neuilly-Crimolois,21452,21800,2,Chevigny-Saint-Sauveur,Dijon Métropole,3430,47.28083,5.10583,225,4.58
Noiron-sous-Gevrey,21458,21910,1,Nuits-Saint-Georges,CC de Gevrey-Chambertin et de Nuits-Saint-Georges,1143,47.19444,5.07889,210,6.59
Nolay,21461,21340,1,Arnay-le-Duc,CA Beaune, Côte et Sud - Communauté Beaune-Chagny-Nolay,1419,46.95056,4.63528,330,14.44
Nuits-Saint-Georges,21464,21700,1,Nuits-Saint-Georges,CC de Gevrey-Chambertin et de Nuits-Saint-Georges,5263,47.13722,4.95111,244,20.41
Ouges,21473,21600,2,Longvic,Dijon Métropole,1505,47.26194,5.07583,220,12.21
Perrigny-lès-Dijon,21481,21160,2,Longvic,Dijon Métropole,2321,47.26556,5.00611,253,6.76
Plombières-lès-Dijon,21485,21370,2,Talant,Dijon Métropole,2508,47.34195,4.97083,270,14.96
Pontailler-sur-Saône,21496,21270,2,Auxonne,CC Auxonne Pontailler Val de Saône,1285,47.30500,5.41333,200,13.25
Pouilly-en-Auxois,21501,21320,1,Arnay-le-Duc,CC de Pouilly en Auxois/Bligny sur Ouche,1554,47.26250,4.55528,400,10.19
Quetigny,21515,21800,2,Chevigny-Saint-Sauveur,Dijon Métropole,8897,47.31500,5.11500,220,8.31
Rouvres-en-Plaine,21532,21110,2,Genlis,CC de la Plaine Dijonnaise,1254,47.23667,5.14306,206,14.61
Ruffey-lès-Echirey,21535,21490,2,Fontaine-lès-Dijon,CC Norge et Tille,1404,47.36778,5.08083,240,11.23
Saint-Apollinaire,21540,21850,2,Saint-Apollinaire,Dijon Métropole,7517,47.33389,5.08333,250,10.21
Saint-Jean-de-Losne,21554,21170,1,Brazey-en-Plaine,CC Rives de Saône,1001,47.10361,5.26722,180,0.60
Saint-Julien,21555,21490,2,Fontaine-lès-Dijon,CC Norge et Tille,1749,47.40194,5.14250,235,16.86
Saint-Usage,21577,21170,1,Brazey-en-Plaine,CC Rives de Saône,1330,47.10972,5.26167,185,9.47
Saulieu,21584,21210,3,Semur-en-Auxois,CC de Saulieu,2269,47.28250,4.23139,540,32.57
Saulon-la-Chapelle,21585,21910,1,Nuits-Saint-Georges,CC de Gevrey-Chambertin et de Nuits-Saint-Georges,1030,47.21611,5.08861,208,9.99
Savigny-lès-Beaune,21590,21420,1,Ladoix-Serrigny,CA Beaune, Côte et Sud - Communauté Beaune-Chagny-Nolay,1300,47.06222,4.81889,268,36.25
Selongey,21599,21260,2,Is-sur-Tille,CC Tille et Venelle,2394,47.58861,5.18472,300,46.84
Semur-en-Auxois,21603,21140,3,Semur-en-Auxois,CC des Terres d'Auxois,4027,47.49306,4.33139,280,19.08
Sennecey-lès-Dijon,21605,21800,2,Chevigny-Saint-Sauveur,Dijon Métropole,2125,47.29222,5.10167,225,3.49
Seurre,21607,21250,1,Brazey-en-Plaine,CC Rives de Saône,2336,46.99556,5.14639,180,8.99
Talant,21617,21240,2,Talant,Dijon Métropole,11986,47.33583,5.00361,360,5.11
Tart,21623,21110,2,Genlis,CC de la Plaine Dijonnaise,1533,47.20472,5.20611,231,10.35
Thorey-en-Plaine,21632,21110,2,Genlis,CC de la Plaine Dijonnaise,1134,47.21583,5.13389,204,5.80
Til-Châtel,21638,21120,2,Is-sur-Tille,CC des Vallées de la Tille et de l'Ignon,1136,47.51833,5.17611,280,26.19
Varois-et-Chaignot,21657,21490,2,Saint-Apollinaire,CC Norge et Tille,2068,47.34945,5.12667,230,10.03
Velars-sur-Ouche,21661,21370,2,Talant,CC Ouche et Montagne,1829,47.32028,4.90250,290,12.17
Venarey-les-Laumes,21663,21150,3,Montbard,CC du Pays d'Alésia et de la Seine,2758,47.54333,4.45778,240,10.37
Villers-les-Pots,21699,21130,2,Auxonne,CC Auxonne Pontailler Val de Saône,1206,47.21139,5.35500,200,10.48
Vitteaux,21710,21350,3,Semur-en-Auxois,CC des Terres d'Auxois,1056,47.39750,4.54139,323,20.92
Abbévillers,25004,25310,2,Maîche,CA Pays de Montbéliard Agglomération,1099,47.43167,6.91944,560,11.19
Arc-et-Senans,25021,25610,1,Saint-Vit,CC Loue-Lison,1621,47.03667,5.78833,243,14.91
Arcey,25022,25750,2,Bavans,CC des Deux Vallées Vertes,1491,47.52056,6.65750,374,12.52
Audincourt,25031,25400,2,Audincourt,CA Pays de Montbéliard Agglomération,14009,47.47778,6.84139,322,8.74
Avanne-Aveney,25036,25720,1,Besançon-1,CU Grand Besançon Métropole,2237,47.20167,5.96583,250,8.59
Bart,25043,25420,2,Montbéliard,CA Pays de Montbéliard Agglomération,2015,47.49306,6.77056,314,3.81
Baume-les-Dames,25047,25110,1,Baume-les-Dames,CC du Doubs Baumois,5064,47.35444,6.36056,280,25.01
Bavans,25048,25550,2,Bavans,CA Pays de Montbéliard Agglomération,3566,47.48306,6.72944,330,8.90
Besançon [4],25056,25000,1,Besançon,CU Grand Besançon Métropole,120057,47.24528,6.02583,261,65.21
Bethoncourt,25057,25200,2,Bethoncourt,CA Pays de Montbéliard Agglomération,5288,47.53417,6.80056,354,6.63
Beure,25058,25720,1,Besançon-6,CU Grand Besançon Métropole,1342,47.20778,6.00472,250,4.00
Blamont,25063,25310,2,Maîche,CA Pays de Montbéliard Agglomération,1236,47.38445,6.85250,548,9.95
Bonnétage,25074,25210,3,Morteau,CC du Plateau de Russey,1001,47.19944,6.70333,896,17.91
Bouclans,25078,25360,1,Baume-les-Dames,CC des Portes du Haut-Doubs,1057,47.24833,6.23639,439,21.53
Boussières,25084,25320,1,Besançon-6,CU Grand Besançon Métropole,1200,47.15694,5.90083,270,5.63
Chaffois,25110,25300,3,Pontarlier,CC du Grand Pontarlier,1032,46.91389,6.26833,850,16.37
Chalezeule,25112,25220,1,Besançon-4,CU Grand Besançon Métropole,1326,47.25945,6.07528,250,3.93
Charquemont,25127,25140,2,Maîche,CC du Pays de Maîche,2867,47.21389,6.82306,870,21.77
Châtillon-le-Duc,25133,25870,1,Besançon-3,CU Grand Besançon Métropole,2025,47.30778,6.00667,300,6.18
Chemaudin et Vaux,25147,25320,1,Besançon-1,CU Grand Besançon Métropole,2114,47.22472,5.89056,300,7.35
la Cluse-et-Mijoux,25157,25300,3,Pontarlier,CC du Grand Pontarlier,1317,46.87806,6.37444,850,22.76
Colombier-Fontaine,25159,25260,2,Bavans,CA Pays de Montbéliard Agglomération,1215,47.45222,6.69194,310,7.72
Courcelles-lès-Montbéliard,25170,25420,2,Montbéliard,CA Pays de Montbéliard Agglomération,1387,47.50250,6.77667,310,2.39
Cussey-sur-l'Ognon,25186,25870,1,Baume-les-Dames,CU Grand Besançon Métropole,1049,47.33917,5.93889,210,7.51
Dampierre-les-Bois,25190,25490,2,Audincourt,CA Pays de Montbéliard Agglomération,1565,47.50778,6.91139,370,4.76
Damprichard,25193,25450,2,Maîche,CC du Pays de Maîche,1825,47.24583,6.88194,812,21.78
Dannemarie-sur-Crète,25195,25410,1,Besançon-1,CU Grand Besançon Métropole,1503,47.20667,5.86472,286,4.16
Dasle,25196,25230,2,Audincourt,CA Pays de Montbéliard Agglomération,1370,47.47889,6.89611,390,5.60
Devecey,25200,25870,1,Baume-les-Dames,CU Grand Besançon Métropole,1314,47.32500,6.01667,230,3.76
Doubs,25204,25300,3,Pontarlier,CC du Grand Pontarlier,3309,46.92805,6.35083,810,8.92
École-Valentin,25212,25480,1,Besançon-2,CU Grand Besançon Métropole,2620,47.27111,5.98111,317,3.20
Étalans,25222,25580,3,Valdahon,CC des Portes du Haut-Doubs,1648,47.15028,6.26889,590,24.03
Étupes,25228,25460,2,Bethoncourt,CA Pays de Montbéliard Agglomération,3711,47.50806,6.86417,340,9.95
Exincourt,25230,25400,2,Bethoncourt,CA Pays de Montbéliard Agglomération,3273,47.50083,6.83861,333,3.56
Fesches-le-Châtel,25237,25490,2,Bethoncourt,CA Pays de Montbéliard Agglomération,2147,47.52361,6.89778,340,3.55
les Fins,25240,25500,3,Morteau,CC du Val de Morteau,3062,47.07833,6.62917,850,25.66
Fontain,25245,25660,1,Besançon-5,CU Grand Besançon Métropole,1200,47.19861,6.02500,445,16.35
les Fourgs,25254,25300,3,Frasne,CC des Lacs et Montagnes du Haut-Doubs,1429,46.83500,6.40111,1080,27.92
Franois,25258,25770,1,Besançon-1,CU Grand Besançon Métropole,2250,47.23389,5.92444,294,7.29
Frasne,25259,25560,3,Frasne,CC du Plateau de Frasne et du Val de Drugeon (CFD),1958,46.85556,6.15972,850,33.02
Geneuille,25265,25870,1,Baume-les-Dames,CU Grand Besançon Métropole,1264,47.32361,5.97139,220,6.39
Gilley,25271,25650,3,Ornans,CC de Montbenoit,1805,47.04889,6.48000,890,17.44
Grand'Combe-Châteleu,25285,25570,3,Morteau,CC du Val de Morteau,1507,47.02722,6.56861,770,21.62
Grand-Charmont,25284,25200,2,Bethoncourt,CA Pays de Montbéliard Agglomération,5865,47.52611,6.82500,340,4.51
Grandfontaine,25287,25320,1,Besançon-1,CU Grand Besançon Métropole,1810,47.19861,5.90028,240,5.72
Granges-Narboz,25293,25300,3,Pontarlier,CC du Grand Pontarlier,1355,46.87917,6.31000,840,16.34
Hérimoncourt,25304,25310,2,Audincourt,CA Pays de Montbéliard Agglomération,3530,47.44305,6.88167,361,7.28
Houtaud,25309,25300,3,Pontarlier,CC du Grand Pontarlier,1197,46.91583,6.30917,810,7.87
l'Isle-sur-le-Doubs,25315,25250,2,Bavans,CC des Deux Vallées Vertes,2812,47.44695,6.58583,296,10.77
Jougne,25318,25370,3,Frasne,CC des Lacs et Montagnes du Haut-Doubs,1915,46.76194,6.39083,1001,29.04
Labergement-Sainte-Marie,25320,25160,3,Frasne,CC des Lacs et Montagnes du Haut-Doubs,1257,46.77639,6.28444,860,22.13
Les Auxons,25035,25870,1,Besançon-3,CU Grand Besançon Métropole,2522,47.30111,5.97222,260,3.91
Levier,25334,25270,3,Frasne,CC Altitude 800,2345,46.95361,6.11583,720,37.63
Maîche,25356,25120,2,Maîche,CC du Pays de Maîche,4226,47.25306,6.80222,790,17.46
Mamirolle,25364,25620,1,Besançon-5,CU Grand Besançon Métropole,1974,47.19722,6.16139,480,11.53
Mandeure,25367,25350,2,Valentigney,CA Pays de Montbéliard Agglomération,4672,47.45194,6.80667,335,15.23
Marchaux-Chaudefontaine,25368,25640,1,Besançon-4,CU Grand Besançon Métropole,1429,47.32472,6.13444,297,10.00
Mathay,25370,25700,2,Valentigney,CA Pays de Montbéliard Agglomération,2131,47.43722,6.78472,335,14.90
Métabief,25380,25370,3,Frasne,CC des Lacs et Montagnes du Haut-Doubs,1395,46.77333,6.34889,950,5.82
Miserey-Salines,25381,25480,1,Besançon-3,CU Grand Besançon Métropole,2660,47.28305,5.97000,300,6.17
Montbéliard,25388,25200,2,Montbéliard,CA Pays de Montbéliard Agglomération,25516,47.51194,6.80000,330,14.91
Montenois,25394,25260,2,Bavans,CA Pays de Montbéliard Agglomération,1394,47.49417,6.66583,410,8.16
Montfaucon,25395,25660,1,Besançon-5,CU Grand Besançon Métropole,1608,47.23583,6.08056,490,7.27
Montferrand-le-Château,25397,25320,1,Besançon-6,CU Grand Besançon Métropole,2191,47.17805,5.92444,290,7.48
Montlebon,25403,25500,3,Morteau,CC du Val de Morteau,2227,47.03917,6.61278,800,27.37
Morre,25410,25660,1,Besançon-5,CU Grand Besançon Métropole,1321,47.22528,6.06417,300,5.28
Morteau,25411,25500,3,Morteau,CC du Val de Morteau,6905,47.05750,6.60222,760,14.27
Mouthe,25413,25240,3,Frasne,CC des Lacs et Montagnes du Haut-Doubs,1025,46.71056,6.19194,938,38.89
Nancray,25418,25360,1,Besançon-5,CU Grand Besançon Métropole,1300,47.24556,6.18306,410,16.65
Nommay,25428,25600,2,Bethoncourt,CA Pays de Montbéliard Agglomération,1601,47.53917,6.84750,330,3.22
Novillars,25429,25220,1,Besançon-5,CU Grand Besançon Métropole,1345,47.28861,6.13167,260,2.05
Orchamps-Vennes,25432,25390,3,Valdahon,CC des Portes du Haut-Doubs,2180,47.13167,6.52500,750,24.80
Ornans,25434,25290,1,Ornans,CC Loue-Lison,4421,47.10556,6.14250,345,32.74
Pays-de-Clerval,25156,25340,2,Bavans,CC des Deux Vallées Vertes,1161,47.39389,6.49944,290,11.80
Pays-de-Montbenoît,25390,25650,3,Ornans,CC de Montbenoit,1914,46.99222,6.46139,800,5.12
Pelousey,25448,25170,1,Besançon-2,CU Grand Besançon Métropole,1588,47.27611,5.92139,242,6.23
Pierrefontaine-les-Varans,25453,25510,3,Valdahon,CC des Portes du Haut-Doubs,1361,47.21528,6.54056,700,29.13
Pirey,25454,25480,1,Besançon-2,CU Grand Besançon Métropole,2179,47.26278,5.96667,300,6.70
Pont-de-Roide,25463,25150,2,Valentigney,CA Pays de Montbéliard Agglomération,3971,47.38556,6.77139,350,13.59
Pontarlier,25462,25300,3,Pontarlier,CC du Grand Pontarlier,17928,46.90500,6.35528,840,41.39
Pouilley-les-Vignes,25467,25115,1,Besançon-2,CU Grand Besançon Métropole,2162,47.25694,5.93556,240,9.51
Les Premiers Sapins,25424,25580,3,Valdahon,CC des Portes du Haut-Doubs,1576,47.09555,6.34028,710,11.85
Quingey,25475,25440,1,Saint-Vit,CC Loue-Lison,1313,47.10333,5.88083,265,8.69
Roche-lez-Beaupré,25495,25220,1,Besançon-5,CU Grand Besançon Métropole,2185,47.27611,6.11417,250,5.60
Rougemont,25505,25680,1,Baume-les-Dames,CC des Deux Vallées Vertes,1012,47.47944,6.35722,255,18.26
Roulans,25508,25640,1,Baume-les-Dames,CC du Doubs Baumois,1122,47.31694,6.22972,360,8.34
le Russey,25512,25210,3,Morteau,CC du Plateau de Russey,2546,47.16306,6.72889,880,24.27
Saint-Vit,25527,25410,1,Saint-Vit,CU Grand Besançon Métropole,5059,47.18167,5.81139,257,16.42
Sainte-Suzanne,25526,25630,2,Montbéliard,CA Pays de Montbéliard Agglomération,1461,47.50555,6.76972,320,1.54
Sancey,25529,25430,2,Bavans,CC du Pays de Sancey-Belleherbe,1364,47.29472,6.58333,500,23.54
Saône,25532,25660,1,Besançon-5,CU Grand Besançon Métropole,3142,47.22472,6.11694,390,20.83
Seloncourt,25539,25230,2,Audincourt,CA Pays de Montbéliard Agglomération,5812,47.46222,6.86056,345,7.90
Serre-les-Sapins,25542,25770,1,Besançon-2,CU Grand Besançon Métropole,1921,47.24194,5.92806,300,5.28
Sochaux,25547,25600,2,Bethoncourt,CA Pays de Montbéliard Agglomération,3772,47.51639,6.83056,320,2.21
Taillecourt,25555,25400,2,Audincourt,CA Pays de Montbéliard Agglomération,1132,47.49750,6.85194,340,1.86
Tarcenay-Foucherans,25558,25620,1,Ornans,CC Loue-Lison,1498,47.15611,6.11028,492,13.07
Thise,25560,25220,1,Besançon-4,CU Grand Besançon Métropole,2990,47.28472,6.08056,280,9.01
Torpes,25564,25320,1,Besançon-6,CU Grand Besançon Métropole,1004,47.16945,5.89139,250,5.63
Val-d'Usiers,25060,25520,3,Ornans,CC Altitude 800,2128,46.95972,6.26833,750,14.07
Valdahon,25578,25800,3,Valdahon,CC des Portes du Haut-Doubs,5715,47.14750,6.34611,650,25.42
Valentigney,25580,25700,2,Valentigney,CA Pays de Montbéliard Agglomération,10624,47.46750,6.83333,326,9.79
Vercel-Villedieu-le-Camp,25601,25530,3,Valdahon,CC des Portes du Haut-Doubs,1732,47.18389,6.39917,650,30.37
Vieux-Charmont,25614,25600,2,Bethoncourt,CA Pays de Montbéliard Agglomération,2829,47.52417,6.83972,330,2.54
Villers-le-Lac,25321,25130,3,Morteau,CC du Val de Morteau,5248,47.06111,6.66972,780,30.35
Voujeaucourt,25632,25420,2,Valentigney,CA Pays de Montbéliard Agglomération,3152,47.47500,6.77417,317,9.47
Arbois,39013,39600,1,Arbois,CC Arbois, Poligny, Salins, Coeur du Jura,3146,46.90055,5.77278,292,45.51
Arinthod,39016,39240,2,Moirans-en-Montagne,CC Terre d'Émeraude Communauté,1149,46.39333,5.56583,450,20.07
Arlay,39017,39140,2,Bletterans,CC Bresse Haute Seille,1184,46.75889,5.52917,222,14.25
Beaufort-Orbagna,39043,39190,2,Saint-Amour,CC Porte du Jura,1466,46.57250,5.43806,250,13.17
Bletterans,39056,39140,2,Bletterans,CC Bresse Haute Seille,1530,46.74472,5.45111,203,7.82
Bois-d'Amont,39059,39220,3,Hauts de Bienne,CC de la Station des Rousses-Haut Jura,1695,46.53417,6.14056,1073,10.38
Champagnole,39097,39300,2,Champagnole,CC Champagnole Nozeroy Jura,8035,46.74389,5.90806,540,20.18
Champvans,39101,39100,1,Dole-1,CA du Grand Dole,1460,47.10472,5.43750,230,14.31
Chassal-Molinges,39339,39360,3,Coteaux du Lizon,CC Haut-Jura Saint-Claude,1120,46.35333,5.76333,360,2.59
Chaussin,39128,39120,1,Tavaux,CC de la Plaine Jurassienne,1576,46.96583,5.40500,188,15.99
Choisey,39150,39100,1,Dole-2,CA du Grand Dole,1002,47.06306,5.46111,200,8.40
Clairvaux-les-Lacs,39154,39130,2,Saint-Laurent-en-Grandvaux,CC Terre d'Émeraude Communauté,1428,46.57417,5.74750,540,12.32
Coteaux du Lizon,39491,39170,3,Coteaux du Lizon,CC Haut-Jura Saint-Claude,2146,46.39778,5.78861,582,9.51
Courlaoux,39171,39570,2,Lons-le-Saunier-1,CA ECLA (Espace Communautaire Lons Agglomération),1179,46.66556,5.46111,220,12.55
Cousance,39173,39190,2,Saint-Amour,CC Porte du Jura,1290,46.52833,5.39000,230,6.55
Damparis,39189,39500,1,Dole-2,CA du Grand Dole,2590,47.07361,5.41194,200,8.86
Dampierre,39190,39700,1,Mont-sous-Vaudrey,CC Jura Nord,1316,47.15500,5.74139,240,7.10
le Deschaux,39193,39120,1,Tavaux,CA du Grand Dole,1030,46.94750,5.50167,225,8.69
Dole,39198,39100,1,Dole,CA du Grand Dole,23784,47.09167,5.49639,225,38.14
Domblans,39199,39210,2,Poligny,CC Bresse Haute Seille,1195,46.76278,5.59972,255,9.86
Foncine-le-Haut,39228,39460,2,Saint-Laurent-en-Grandvaux,CC Champagnole Nozeroy Jura,1107,46.65917,6.07556,860,29.05
Foucherans,39233,39100,1,Dole-1,CA du Grand Dole,2286,47.08055,5.45472,212,7.78
Fraisans,39235,39700,1,Mont-sous-Vaudrey,CC Jura Nord,1170,47.14917,5.76111,220,16.79
Hauts-de-Bienne,39368,39400,3,Hauts de Bienne,CC Haut-Jura Arcade Communauté,5099,46.51500,6.02500,750,9.71
Lavans-lès-Saint-Claude,39286,39170,3,Coteaux du Lizon,CC Haut-Jura Saint-Claude,2342,46.38361,5.78028,520,11.81
Longchaumois,39297,39400,3,Hauts de Bienne,CC Haut-Jura Arcade Communauté,1133,46.46139,5.93083,884,57.77
Lons-le-Saunier [3],39300,39000,2,Lons-le-Saunier,CA ECLA (Espace Communautaire Lons Agglomération),16942,46.67250,5.55222,267,7.67
Macornay,39306,39570,2,Lons-le-Saunier-2,CA ECLA (Espace Communautaire Lons Agglomération),1027,46.64444,5.53944,280,4.72
Moirans-en-Montagne,39333,39260,3,Moirans-en-Montagne,CC Terre d'Émeraude Communauté,2121,46.42972,5.72278,630,27.34
Mont-sous-Vaudrey,39365,39380,1,Mont-sous-Vaudrey,CC du Val d'Amour,1302,46.97944,5.60056,215,15.17
Montmorot,39362,39570,2,Lons-le-Saunier-1,CA ECLA (Espace Communautaire Lons Agglomération),3207,46.67694,5.52833,260,11.36
Morbier,39367,39400,3,Hauts de Bienne,CC Haut-Jura Arcade Communauté,2371,46.53472,6.01694,910,35.92
Mouchard,39370,39330,1,Mont-sous-Vaudrey,CC du Val d'Amour,1094,46.97500,5.79361,281,6.16
Orchamps,39396,39700,1,Mont-sous-Vaudrey,CC Jura Nord,1048,47.14917,5.66083,240,9.82
Orgelet,39397,39270,2,Moirans-en-Montagne,CC Terre d'Émeraude Communauté,1571,46.52250,5.61028,500,25.53
Parcey,39405,39100,1,Dole-2,CA du Grand Dole,1023,47.02278,5.48417,199,8.34
Perrigny,39411,39570,2,Poligny,CA ECLA (Espace Communautaire Lons Agglomération),1535,46.66833,5.58278,310,8.89
Petit-Noir,39415,39120,1,Tavaux,CC de la Plaine Jurassienne,1063,46.93444,5.33944,185,21.05
Poligny,39434,39800,1,Poligny,CC Arbois, Poligny, Salins, Coeur du Jura,4089,46.83444,5.70750,347,51.18
Prémanon,39441,39220,3,Hauts de Bienne,CC de la Station des Rousses-Haut Jura,1244,46.46167,6.03083,1120,28.23
les Rousses,39470,39220,3,Hauts de Bienne,CC de la Station des Rousses-Haut Jura,3702,46.48500,6.06056,1100,38.05
Saint-Amour,39475,39160,2,Saint-Amour,CC Porte du Jura,2364,46.43583,5.34083,225,11.57
Saint-Aubin,39476,39410,1,Tavaux,CA du Grand Dole,1855,47.03361,5.33028,188,33.68
Saint-Claude,39478,39200,3,Saint-Claude,CC Haut-Jura Saint-Claude,8556,46.38806,5.86361,434,70.23
Saint-Laurent-en-Grandvaux,39487,39150,3,Saint-Laurent-en-Grandvaux,CC la Grandvallière,1818,46.57500,5.95167,900,17.52
Salins-les-Bains,39500,39110,1,Arbois,CC Arbois, Poligny, Salins, Coeur du Jura,2430,46.94083,5.87778,357,25.05
Sampans,39501,39100,1,Dole-1,CA du Grand Dole,1114,47.12639,5.45556,220,7.50
Tavaux,39526,39500,1,Tavaux,CA du Grand Dole,3926,47.03389,5.40361,193,13.91
Val-Sonnette,39576,39190,2,Saint-Amour,CC Porte du Jura,1309,46.59889,5.47833,230,6.45
Cercy-la-Tour,58046,58340,1,Luzy,CC Bazois Loire Morvan,1683,46.87028,3.64417,200,45.45
Challuy,58051,58000,3,Nevers-3,CA de Nevers,1468,46.94917,3.14833,198,18.88
Chantenay-Saint-Imbert,58057,58240,3,Saint-Pierre-le-Moûtier,CC du Nivernais Bourbonnais,1090,46.73306,3.18417,220,42.24
la Charité-sur-Loire,58059,58400,4,La Charité-sur-Loire,CC Les Bertranges,4701,47.17889,3.01917,170,15.81
Château-Chinon (Ville),58062,58120,1,Château-Chinon,CC Morvan Sommets et Grands Lacs,1857,47.06500,3.93389,534,4.15
Chaulgnes,58067,58400,4,La Charité-sur-Loire,CC Les Bertranges,1503,47.13028,3.10528,224,25.22
Clamecy,58079,58500,2,Clamecy,CC Haut Nivernais-Val d'Yonne,3597,47.45861,3.51889,150,30.88
Corbigny,58083,58800,2,Corbigny,CC Tannay-Brinon-Corbigny,1330,47.25667,3.68472,200,20.25
Cosne-Cours-sur-Loire,58086,58200,4,Cosne-Cours-sur-Loire,CC Coeur de Loire,9786,47.40917,2.92333,150,53.78
Coulanges-lès-Nevers,58088,58660,3,Nevers-1,CA de Nevers,3678,47.00555,3.18917,192,10.61
Decize,58095,58300,3,Decize,CC Sud Nivernais,5025,46.82778,3.45361,193,48.25
Donzy,58102,58220,4,Pouilly-sur-Loire,CC Coeur de Loire,1542,47.37083,3.12444,182,63.44
Dornes,58104,58390,3,Saint-Pierre-le-Moûtier,CA Moulins Communauté,1458,46.71556,3.35389,220,40.11
Fourchambault,58117,58600,3,Fourchambault,CA de Nevers,4019,47.02139,3.08306,173,4.45
Garchizy,58121,58600,3,Fourchambault,CA de Nevers,3666,47.04694,3.09611,210,16.48
Guérigny,58131,58130,3,Guérigny,CC Les Bertranges,2512,47.09028,3.19778,210,7.47
Imphy,58134,58160,3,Imphy,CC Sud Nivernais,3175,46.92861,3.26500,200,16.65
Lormes,58145,58140,1,Corbigny,CC Morvan Sommets et Grands Lacs,1259,47.29028,3.81833,430,51.86
Luzy,58149,58170,1,Luzy,CC Bazois Loire Morvan,1983,46.78889,3.97139,227,41.73
la Machine,58151,58260,3,Imphy,CC Sud Nivernais,3213,46.89056,3.46667,260,18.13
Magny-Cours,58152,58470,3,Nevers-2,CC Loire et Allier,1417,46.88417,3.15139,209,32.16
Marzy,58160,58180,3,Fourchambault,CA de Nevers,3650,46.98056,3.08944,190,21.55
Moulins-Engilbert,58182,58290,1,Luzy,CC Bazois Loire Morvan,1354,46.98778,3.81167,224,41.41
Neuvy-sur-Loire,58193,58450,4,Pouilly-sur-Loire,CC Coeur de Loire,1428,47.52222,2.88389,140,20.81
Nevers [3],58194,58000,3,Nevers,CA de Nevers,33172,46.99445,3.15556,201,17.45
Pougues-les-Eaux,58214,58320,3,Varennes-Vauzelles,CA de Nevers,2388,47.07417,3.10278,202,13.09
Pouilly-sur-Loire,58215,58150,4,Pouilly-sur-Loire,CC Coeur de Loire,1623,47.28305,2.95861,160,19.92
Prémery,58218,58700,4,La Charité-sur-Loire,CC Les Bertranges,1782,47.17222,3.33083,240,45.76
Saint-Amand-en-Puisaye,58227,58310,4,Pouilly-sur-Loire,CC de Puisaye-Forterre,1211,47.52806,3.07444,180,41.58
Saint-Benin-d'Azy,58232,58270,3,Guérigny,CC Amognes Coeur du Nivernais,1257,46.99750,3.39333,250,36.24
Saint-Éloi,58238,58000,3,Nevers-2,CC Loire et Allier,2220,46.97306,3.22333,190,16.43
Saint-Léger-des-Vignes,58250,58300,3,Decize,CC Sud Nivernais,1669,46.84306,3.45472,210,9.15
Saint-Parize-le-Châtel,58260,58490,3,Saint-Pierre-le-Moûtier,CC Loire et Allier,1216,46.85444,3.18278,231,49.73
Saint-Père,58261,58200,4,Cosne-Cours-sur-Loire,CC Coeur de Loire,1047,47.41167,2.96250,161,17.29
Saint-Pierre-le-Moûtier,58264,58240,3,Saint-Pierre-le-Moûtier,CC du Nivernais Bourbonnais,1828,46.79389,3.11861,232,47.84
Sauvigny-les-Bois,58273,58160,3,Imphy,CC Loire et Allier,1413,46.96528,3.27500,210,29.78
Sermoise-sur-Loire,58278,58000,3,Nevers-2,CA de Nevers,1490,46.95083,3.18611,193,25.12
Urzy,58300,58130,3,Guérigny,CC Les Bertranges,1735,47.04778,3.20417,190,23.88
Varennes-Vauzelles,58303,58640,3,Varennes-Vauzelles,CA de Nevers,9166,47.01250,3.13917,199,33.95
Varzy,58304,58210,2,Clamecy,CC Haut Nivernais-Val d'Yonne,1066,47.35889,3.38833,225,41.42
Aillevillers-et-Lyaumont,70006,70320,1,Saint-Loup-sur-Semouse,CC de la Haute Comté,1440,47.91972,6.33278,290,36.78
Arc-lès-Gray,70026,70100,2,Gray,CC Val de Gray,2410,47.45861,5.58028,200,12.16
Châlonvillars,70117,70400,1,Héricourt-1,CC du Pays d'Héricourt,1253,47.64000,6.78444,380,7.67
Champagney,70120,70290,1,Héricourt-1,CC Rahin et Chérimont,3674,47.70583,6.68306,369,37.20
Champlitte,70122,70600,2,Dampierre-sur-Salon,CC des Quatre Rivières,1601,47.61667,5.51056,220,129.52
Corbenay,70171,70320,1,Saint-Loup-sur-Semouse,CC de la Haute Comté,1249,47.89056,6.32833,265,15.97
Dampierre-sur-Salon,70198,70180,2,Dampierre-sur-Salon,CC des Quatre Rivières,1248,47.55778,5.68139,203,18.93
Échenoz-la-Méline,70207,70000,2,Vesoul-1,CA de Vesoul,3187,47.60250,6.13694,250,8.19
Fontaine-lès-Luxeuil,70240,70800,1,Saint-Loup-sur-Semouse,CC de la Haute Comté,1329,47.85833,6.33444,260,27.94
Fougerolles-Saint-Valbert,70245,70220,1,Fougerolles-Saint-Valbert,CC de la Haute Comté,3777,47.88639,6.40611,310,51.49
Frahier-et-Chatebier,70248,70400,1,Héricourt-1,CC Rahin et Chérimont,1377,47.65889,6.74833,370,17.48
Froideconche,70258,70300,1,Luxeuil-les-Bains,CC du Pays de Luxeuil,1974,47.81944,6.41472,300,16.13
Frotey-lès-Vesoul,70261,70000,2,Vesoul-2,CA de Vesoul,1367,47.62250,6.18389,240,7.81
Gray,70279,70100,2,Gray,CC Val de Gray,5455,47.44639,5.59083,200,20.11
Gy,70282,70700,2,Marnay,CC des Monts de Gy,1030,47.40611,5.81250,240,24.92
Héricourt,70285,70400,1,Héricourt,CC du Pays d'Héricourt,10525,47.57417,6.75694,350,18.06
Jussey,70292,70500,2,Jussey,CC des Hauts du Val de Saône,1550,47.82583,5.90139,215,33.71
Lure,70310,70200,1,Lure,CC du Pays de Lure,7912,47.68250,6.49806,295,24.66
Luxeuil-les-Bains,70311,70300,1,Luxeuil-les-Bains,CC du Pays de Luxeuil,6674,47.81750,6.38139,290,22.13
Magny-Vernois,70321,70200,1,Lure-2,CC du Pays de Lure,1361,47.67083,6.47417,290,6.50
Marnay,70334,70150,2,Marnay,CC du Val Marnaysien,1527,47.28944,5.77167,220,10.41
Mélisey,70339,70270,1,Mélisey,CC des 1000 étangs,1643,47.75361,6.58194,328,21.22
Navenne,70378,70000,2,Vesoul-2,CA de Vesoul,1591,47.60778,6.16361,280,4.00
Noidans-lès-Vesoul,70388,70000,2,Vesoul-1,CA de Vesoul,1979,47.61444,6.12389,229,8.57
Pesmes,70408,70140,2,Marnay,CC Val de Gray,1082,47.27889,5.56389,210,18.91
Plancher-Bas,70413,70290,1,Héricourt-1,CC Rahin et Chérimont,1855,47.72111,6.73139,428,29.13
Port-sur-Saône,70421,70170,2,Port-sur-Saône,CC Terres de Saône,2966,47.68889,6.04667,220,24.63
Pusey,70428,70000,2,Vesoul-1,CA de Vesoul,1437,47.65389,6.12528,230,8.20
Quincey,70433,70000,2,Vesoul-2,CA de Vesoul,1359,47.61056,6.18500,250,13.01
Rioz,70447,70190,2,Rioz,CC du Pays Riolais,2432,47.42528,6.07028,270,17.27
Ronchamp,70451,70250,1,Lure-1,CC Rahin et Chérimont,2745,47.69944,6.63639,350,23.42
Roye,70455,70200,1,Lure-2,CC du Pays de Lure,1486,47.66945,6.54194,300,10.46
Saint-Barthélemy,70459,70270,1,Mélisey,CC des 1000 étangs,1091,47.75000,6.58778,330,13.83
Saint-Germain,70464,70200,1,Lure-1,CC du Pays de Lure,1369,47.71667,6.52333,317,14.26
Saint-Loup-sur-Semouse,70467,70800,1,Saint-Loup-sur-Semouse,CC de la Haute Comté,2842,47.88639,6.27306,250,16.85
Saint-Sauveur,70473,70300,1,Luxeuil-les-Bains,CC du Pays de Luxeuil,1929,47.80333,6.38361,283,12.14
Scey-sur-Saône-et-Saint-Albin,70482,70360,2,Scey-sur-Saône-et-Saint-Albin,CC des Combes,1528,47.66583,5.97194,210,28.55
Vaivre-et-Montoille,70513,70000,2,Vesoul-1,CA de Vesoul,2436,47.63083,6.10417,220,8.50
Vesoul [3],70550,70000,2,Vesoul,CA de Vesoul,15306,47.62083,6.15806,220,9.10
Villersexel,70561,70110,1,Villersexel,CC du Pays de Villersexel,1425,47.55139,6.43444,280,13.30
l'Abergement-Sainte-Colombe,71002,71370,2,Ouroux-sur-Saône,CC Terres de Bresse,1235,46.75361,5.00750,196,19.57
Allériot,71004,71380,2,Ouroux-sur-Saône,CC Saône Doubs Bresse,1162,46.81472,4.94611,190,13.53
Autun,71014,71400,1,Autun,CC du Grand Autunois Morvan,13144,46.95194,4.30222,312,61.62
Azé,71016,71260,5,Hurigny,CA Mâconnais Beaujolais Agglomération,1082,46.43000,4.76139,240,15.23
Baudrières,71023,71370,2,Ouroux-sur-Saône,CC Terres de Bresse,1007,46.67417,5.01194,197,27.16
Blanzy,71040,71450,1,Blanzy,CU Le Creusot Montceau-les-Mines,5983,46.70278,4.38472,301,40.23
Bourbon-Lancy,71047,71140,3,Digoin,CC Entre Arroux, Loire et Somme,4656,46.62222,3.77417,250,55.93
Branges,71056,71500,4,Louhans,CC Bresse Louhannaise Intercom',2372,46.64139,5.18000,185,24.75
le Breuil,71059,71670,1,Le Creusot-2,CU Le Creusot Montceau-les-Mines,3508,46.79528,4.48417,330,28.88
Buxy,71070,71390,2,Givry,CC Sud Côte Chalonnaise,2155,46.71250,4.69444,250,11.95
Chagny,71073,71150,2,Chagny,CA Beaune, Côte et Sud - Communauté Beaune-Chagny-Nolay,5402,46.90972,4.75472,210,18.94
Chalon-sur-Saône,71076,71100,2,Chalon-sur-Saône,CA Le Grand Chalon,44592,46.78611,4.84972,178,15.35
Champforgeuil,71081,71530,2,Chalon-sur-Saône-1,CA Le Grand Chalon,2616,46.82000,4.83583,185,7.17
la Chapelle-de-Guinchay,71090,71570,5,La Chapelle-de-Guinchay,CA Mâconnais Beaujolais Agglomération,4038,46.21028,4.75500,200,12.65
Charnay-lès-Mâcon,71105,71850,5,Mâcon-1,CA Mâconnais Beaujolais Agglomération,8154,46.30944,4.78611,272,12.32
Charolles,71106,71120,3,Charolles,CC Le Grand Charolais,2789,46.43472,4.27556,290,20.02
Châtenoy-en-Bresse,71117,71380,2,Ouroux-sur-Saône,CA Le Grand Chalon,1098,46.79222,4.91361,191,6.66
Châtenoy-le-Royal,71118,71880,2,Chalon-sur-Saône-3,CA Le Grand Chalon,6205,46.79083,4.81194,200,12.42
Chaudenay,71119,71150,2,Chagny,CA Beaune, Côte et Sud - Communauté Beaune-Chagny-Nolay,1124,46.91389,4.79389,205,8.16
Chauffailles,71120,71170,3,Chauffailles,CC Brionnais Sud Bourgogne,3656,46.20667,4.34000,386,22.78
Ciry-le-Noble,71132,71420,3,Saint-Vallier,CU Le Creusot Montceau-les-Mines,2213,46.60583,4.29889,280,33.04
la Clayette,71133,71800,3,Chauffailles,CC Brionnais Sud Bourgogne,1596,46.29000,4.30750,400,3.14
Cluny,71137,71250,5,Cluny,CC du Clunisois,4980,46.43306,4.65944,250,24.02
Couches,71149,71490,1,Chagny,CC du Grand Autunois Morvan,1211,46.86945,4.57278,320,20.69
Crêches-sur-Saône,71150,71680,5,La Chapelle-de-Guinchay,CA Mâconnais Beaujolais Agglomération,3179,46.24417,4.78778,188,9.40
le Creusot,71153,71200,1,Le Creusot,CU Le Creusot Montceau-les-Mines,20536,46.79722,4.42528,354,18.15
Crissey,71154,71530,2,Chalon-sur-Saône-1,CA Le Grand Chalon,2473,46.81750,4.88306,185,11.21
Cuiseaux,71157,71480,4,Cuiseaux,CC Bresse Louhannaise Intercom',1853,46.49389,5.38722,276,21.31
Cuisery,71158,71290,4,Cuiseaux,CC Terres de Bresse,1580,46.55722,4.99806,200,11.46
Curgy,71162,71400,1,Autun-1,CC du Grand Autunois Morvan,1100,46.98444,4.38472,350,31.70
Demigny,71170,71150,2,Gergy,CA Le Grand Chalon,1769,46.92694,4.83583,200,29.68
Digoin,71176,71160,3,Digoin,CC Le Grand Charolais,7380,46.48472,3.98417,230,35.17
Dracy-le-Fort,71182,71640,2,Givry,CA Le Grand Chalon,1471,46.79833,4.76250,212,6.36
Écuisses,71187,71210,2,Blanzy,CU Le Creusot Montceau-les-Mines,1624,46.75611,4.53833,350,13.43
Épervans,71189,71380,2,Saint-Rémy,CA Le Grand Chalon,1642,46.75389,4.89917,187,12.58
Épinac,71190,71360,1,Autun-1,CC du Grand Autunois Morvan,2150,46.99194,4.51139,350,25.96
Étang-sur-Arroux,71192,71190,1,Autun-2,CC du Grand Autunois Morvan,1788,46.86694,4.18528,275,34.67
Fontaines,71202,71150,2,Chagny,CA Le Grand Chalon,1845,46.85000,4.77333,195,24.96
Fragnes-la-Loyère,71204,71530,2,Chalon-sur-Saône-1,CA Le Grand Chalon,1434,46.83472,4.84583,185,3.96
Génelard,71212,71420,3,Saint-Vallier,CU Le Creusot Montceau-les-Mines,1407,46.58111,4.23333,267,22.36
Gergy,71215,71590,2,Gergy,CA Le Grand Chalon,2569,46.87528,4.94750,182,39.25
Givry,71221,71640,2,Givry,CA Le Grand Chalon,3623,46.78278,4.74361,220,26.28
Gueugnon,71230,71130,3,Gueugnon,CC Entre Arroux, Loire et Somme,6547,46.60306,4.05778,244,28.63
Hurigny,71235,71870,5,Hurigny,CA Mâconnais Beaujolais Agglomération,1908,46.34806,4.79639,300,9.19
Iguerande,71238,71340,3,Chauffailles,CC de Semur en Brionnais,1001,46.20778,4.07722,271,21.45
Laizé,71250,71870,5,Hurigny,CA Mâconnais Beaujolais Agglomération,1135,46.39417,4.80583,220,10.60
Louhans,71263,71500,4,Louhans,CC Bresse Louhannaise Intercom',6483,46.62722,5.22389,180,22.76
Lux,71269,71100,2,Saint-Rémy,CA Le Grand Chalon,1902,46.75361,4.85583,186,6.18
Mâcon [3],71270,71000,5,Mâcon,CA Mâconnais Beaujolais Agglomération,34759,46.30833,4.83139,190,27.16
Marcigny,71275,71110,3,Paray-le-Monial,CC de Marcigny,1711,46.27444,4.03972,260,8.11
Marmagne,71282,71710,1,Autun-2,CU Le Creusot Montceau-les-Mines,1276,46.83667,4.36083,320,31.15
Matour,71289,71520,5,La Chapelle-de-Guinchay,CC Saint Cyr Mère Boitier entre Charolais et Mâconnais,1159,46.30583,4.48278,430,28.09
Mellecey,71292,71640,2,Givry,CA Le Grand Chalon,1311,46.81083,4.72972,210,14.18
Mercurey,71294,71640,2,Givry,CA Le Grand Chalon,1217,46.83917,4.72139,260,15.56
Mervans,71295,71310,4,Pierre-de-Bresse,CC Bresse Revermont 71,1488,46.79972,5.18833,185,27.27
Montceau-les-Mines,71306,71300,2,Montceau-les-Mines,CU Le Creusot Montceau-les-Mines,16946,46.68167,4.36472,318,16.94
Montcenis,71309,71710,1,Le Creusot-1,CU Le Creusot Montceau-les-Mines,1864,46.78861,4.38778,400,12.39
Montchanin,71310,71210,2,Blanzy,CU Le Creusot Montceau-les-Mines,4982,46.74778,4.46861,330,8.12
Montpont-en-Bresse,71318,71470,4,Cuiseaux,CC Terres de Bresse,1087,46.55556,5.16444,190,38.04
la Motte-Saint-Jean,71325,71160,3,Digoin,CC Le Grand Charolais,1186,46.49722,3.96333,290,21.54
Oslon,71333,71380,2,Ouroux-sur-Saône,CA Le Grand Chalon,1221,46.78361,4.92111,188,4.83
Ouroux-sur-Saône,71336,71370,2,Ouroux-sur-Saône,CC Terres de Bresse,3183,46.72055,4.95222,190,22.73
Palinges,71340,71430,3,Charolles,CC Le Grand Charolais,1413,46.55305,4.21972,274,36.71
Paray-le-Monial,71342,71600,3,Paray-le-Monial,CC Le Grand Charolais,9256,46.45250,4.12056,244,25.31
Perrecy-les-Forges,71346,71420,3,Saint-Vallier,CU Le Creusot Montceau-les-Mines,1546,46.61333,4.21639,289,33.77
Pierre-de-Bresse,71351,71270,4,Pierre-de-Bresse,CC Bresse Nord Intercom',1945,46.88250,5.25833,197,28.25
Prissé,71360,71960,5,Hurigny,CA Mâconnais Beaujolais Agglomération,1865,46.32056,4.74472,210,10.86
la Roche-Vineuse,71371,71960,5,Hurigny,CA Mâconnais Beaujolais Agglomération,1571,46.34333,4.72778,300,12.06
Romanèche-Thorins,71372,71570,5,La Chapelle-de-Guinchay,CA Mâconnais Beaujolais Agglomération,2002,46.19083,4.73667,200,9.79
Romenay,71373,71470,5,Cuiseaux,CC Terres de Bresse,1740,46.50139,5.06639,210,49.09
Rully,71378,71150,2,Chagny,CA Le Grand Chalon,1581,46.87333,4.74167,240,15.75
Sagy,71379,71580,4,Louhans,CC Bresse Louhannaise Intercom',1250,46.60028,5.31028,201,34.37
Saint-Berain-sous-Sanvignes,71390,71300,1,Montceau-les-Mines,CU Le Creusot Montceau-les-Mines,1106,46.70694,4.29500,320,45.27
Saint-Christophe-en-Bresse,71398,71370,2,Ouroux-sur-Saône,CC Terres de Bresse,1054,46.75278,4.98778,190,20.54
Saint-Eusèbe,71412,71210,2,Blanzy,CU Le Creusot Montceau-les-Mines,1175,46.71278,4.46278,340,21.41
Saint-Gengoux-le-National,71417,71460,5,Cluny,CC Sud Côte Chalonnaise,1047,46.61194,4.66167,248,9.36
Saint-Germain-du-Bois,71419,71330,4,Pierre-de-Bresse,CC Bresse Revermont 71,1947,46.75195,5.24306,210,30.43
Saint-Germain-du-Plain,71420,71370,2,Ouroux-sur-Saône,CC Terres de Bresse,2346,46.70278,4.98167,190,19.59
Saint-Léger-sur-Dheune,71442,71510,2,Chagny,CA Le Grand Chalon,1554,46.84500,4.63694,240,12.24
Saint-Loup-de-Varennes,71444,71240,2,Saint-Rémy,CA Le Grand Chalon,1249,46.72611,4.86361,189,8.35
Saint-Loup-Géanges,71443,71350,2,Gergy,CA Le Grand Chalon,1643,46.94639,4.90944,185,19.47
Saint-Marcel,71445,71380,2,Saint-Rémy,CA Le Grand Chalon,6211,46.77555,4.89611,177,10.15
Saint-Martin-Belle-Roche,71448,71118,5,Hurigny,CA Mâconnais Beaujolais Agglomération,1388,46.38194,4.85639,210,4.52
Saint-Martin-en-Bresse,71456,71620,2,Ouroux-sur-Saône,CC Saône Doubs Bresse,1902,46.81722,5.06083,185,34.97
Saint-Rémy,71475,71100,2,Saint-Rémy,CA Le Grand Chalon,6476,46.76972,4.83639,180,10.26
Saint-Sernin-du-Bois,71479,71200,1,Le Creusot-2,CU Le Creusot Montceau-les-Mines,1729,46.84083,4.43361,447,14.82
Saint-Symphorien-d'Ancelles,71481,71570,5,La Chapelle-de-Guinchay,CA Mâconnais Beaujolais Agglomération,1128,46.19778,4.76972,189,6.38
Saint-Usuge,71484,71500,4,Louhans,CC Bresse Louhannaise Intercom',1221,46.67667,5.25083,200,32.12
Saint-Vallier,71486,71230,2,Saint-Vallier,CU Le Creusot Montceau-les-Mines,8508,46.64222,4.36889,330,24.17
Saint-Yan,71491,71600,3,Paray-le-Monial,CC Le Grand Charolais,1132,46.41056,4.03806,240,26.27
Sancé,71497,71000,5,Mâcon-1,CA Mâconnais Beaujolais Agglomération,2158,46.34111,4.83167,200,6.58
Sanvignes-les-Mines,71499,71410,3,Saint-Vallier,CU Le Creusot Montceau-les-Mines,4265,46.66722,4.29222,350,35.68
Sassenay,71502,71530,2,Gergy,CA Le Grand Chalon,1601,46.83083,4.92389,180,19.10
Savigny-en-Revermont,71506,71580,4,Pierre-de-Bresse,CC Bresse Revermont 71,1141,46.63445,5.41944,216,27.56
Sennecey-le-Grand,71512,71240,2,Tournus,CC Entre Saône et Grosne,2911,46.63917,4.87028,210,26.71
Senozan,71513,71260,5,Hurigny,CA Mâconnais Beaujolais Agglomération,1132,46.39778,4.86222,205,4.89
Sevrey,71520,71100,2,Saint-Rémy,CA Le Grand Chalon,1208,46.73778,4.84139,195,8.59
Simandre,71522,71290,4,Cuiseaux,CC Terres de Bresse,1744,46.62250,4.98750,200,22.94
Simard,71523,71330,4,Louhans,CC Bresse Louhannaise Intercom',1175,46.72000,5.18028,205,22.23
Sornay,71528,71500,4,Louhans,CC Bresse Louhannaise Intercom',1958,46.62972,5.18222,179,18.09
Torcy,71540,71210,1,Le Creusot-1,CU Le Creusot Montceau-les-Mines,2805,46.77056,4.45583,310,19.76
Toulon-sur-Arroux,71542,71320,3,Gueugnon,CC Entre Arroux, Loire et Somme,1447,46.69361,4.14028,260,43.72
Tournus,71543,71700,5,Tournus,CC Mâconnais - Tournugeois,5702,46.56083,4.91111,180,24.63
Tramayes,71545,71520,5,La Chapelle-de-Guinchay,CC Saint Cyr Mère Boitier entre Charolais et Mâconnais,1067,46.30806,4.59972,480,18.66
Varennes-le-Grand,71555,71240,2,Saint-Rémy,CA Le Grand Chalon,2287,46.71111,4.87778,187,19.25
Varennes-Saint-Sauveur,71558,71480,4,Cuiseaux,CC Bresse Louhannaise Intercom',1116,46.48111,5.24389,208,30.53
Verdun-Ciel,71566,71350,2,Gergy,CC Saône Doubs Bresse,1838,46.89500,5.02417,176,7.50
Viré,71584,71260,5,Hurigny,CC Mâconnais - Tournugeois,1218,46.44833,4.84417,230,11.36
Virey-le-Grand,71585,71530,2,Chalon-sur-Saône-1,CA Le Grand Chalon,1393,46.84333,4.86639,188,12.76
Vitry-en-Charollais,71588,71600,3,Paray-le-Monial,CC Le Grand Charolais,1082,46.45417,4.05972,260,21.35
Appoigny,89013,89380,1,Auxerre-2,CA de l'Auxerrois,3133,47.87667,3.52556,96,22.39
Auxerre [3],89024,89000,1,Auxerre,CA de l'Auxerrois,35236,47.79833,3.57139,120,49.87
Avallon,89025,89200,2,Avallon,CC Avallon, Vézelay, Morvan,6346,47.48889,3.91028,220,26.66
Bléneau,89046,89220,1,Cœur de Puisaye,CC de Puisaye-Forterre,1146,47.69861,2.94917,160,39.40
Brienon-sur-Armançon,89055,89210,1,Brienon-sur-Armançon,CC Serein et Armance,3060,47.99278,3.61722,100,31.23
Cerisiers,89066,89320,3,Brienon-sur-Armançon,CC de la Vanne et du Pays d'Othe,1002,48.13055,3.48750,150,26.06
Cézy,89067,89410,3,Joigny,CC du Jovinien,1081,47.99222,3.34139,76,16.29
Chablis,89068,89800,1,Chablis,CC Chablis Villages et Terroirs,2151,47.81500,3.79833,140,38.75
Champigny,89074,89340,3,Pont-sur-Yonne,CC Yonne Nord,2127,48.31805,3.12750,80,21.26
Champs-sur-Yonne,89077,89290,1,Auxerre-3,CA de l'Auxerrois,1534,47.73778,3.59944,105,4.39
Charbuy,89083,89113,1,Auxerre-2,CA de l'Auxerrois,1870,47.82278,3.46583,160,23.53
Charmoy,89085,89400,1,Migennes,CC de l'Agglomération Migennoise,1108,47.94167,3.49111,100,6.99
Charny-Orée-de-Puisaye,89086,89120,1,Charny Orée de Puisaye,CC de Puisaye-Forterre,4854,47.88611,3.09556,135,18.78
Cheny,89099,89400,1,Migennes,CC de l'Agglomération Migennoise,2231,47.95278,3.53556,90,9.73
Chéroy,89100,89690,3,Gâtinais en Bourgogne,CC du Gâtinais en Bourgogne,1763,48.20167,2.99944,150,10.50
Chevannes,89102,89240,1,Auxerre-4,CA de l'Auxerrois,2145,47.75195,3.49444,170,24.28
Courlon-sur-Yonne,89124,89140,3,Thorigny-sur-Oreuse,CC Yonne Nord,1191,48.33778,3.16583,70,16.85
Deux Rivières,89130,89460,1,Joux-la-Ville,CC Chablis Villages et Terroirs,1272,47.68306,3.69306,120,22.45
Diges,89139,89240,1,Cœur de Puisaye,CC de Puisaye-Forterre,1059,47.72806,3.39806,220,35.95
Égriselles-le-Bocage,89151,89500,3,Gâtinais en Bourgogne,CC du Gâtinais en Bourgogne,1387,48.11917,3.18139,180,23.61
Fleury-la-Vallée,89167,89113,1,Charny Orée de Puisaye,CC de l'Aillantais en Bourgogne,1019,47.86750,3.44917,140,15.19
Gron,89195,89100,3,Sens-2,CA du Grand Sénonais,1260,48.16028,3.26333,90,11.78
Gurgy,89198,89250,1,Auxerre-2,CA de l'Auxerrois,1724,47.86611,3.56222,90,13.15
Héry,89201,89550,1,Saint-Florentin,CC Serein et Armance,1789,47.90167,3.62667,110,21.36
Joigny,89206,89300,3,Joigny,CC du Jovinien,9055,47.98306,3.39750,100,47.30
Joux-la-Ville,89208,89440,2,Joux-la-Ville,CC du Serein,1164,47.62278,3.86222,230,43.79
Laroche-Saint-Cydroine,89218,89400,1,Migennes,CC de l'Agglomération Migennoise,1209,47.96556,3.48500,90,9.02
Ligny-le-Châtel,89227,89144,1,Chablis,CC Chablis Villages et Terroirs,1211,47.90028,3.75806,130,27.47
Lindry,89228,89240,1,Auxerre-1,CA de l'Auxerrois,1334,47.80056,3.41889,190,15.15
Maillot,89236,89100,3,Sens-2,CA du Grand Sénonais,1271,48.17583,3.30806,80,6.18
Malay-le-Grand,89239,89100,3,Sens-2,CA du Grand Sénonais,1635,48.17500,3.34222,80,22.18
Michery,89255,89140,3,Thorigny-sur-Oreuse,CC Yonne Nord,1080,48.31000,3.23639,80,17.13
Migennes,89257,89400,1,Migennes,CC de l'Agglomération Migennoise,6878,47.96611,3.51333,100,16.65
Monéteau,89263,89470,1,Auxerre-2,CA de l'Auxerrois,4113,47.84972,3.57861,95,18.59
Montholon,89003,89110,1,Charny Orée de Puisaye,CC de l'Aillantais en Bourgogne,2730,47.87472,3.35111,120,18.25
Nailly,89274,89100,3,Gâtinais en Bourgogne,CC du Gâtinais en Bourgogne,1329,48.22333,3.22194,100,21.60
Paron,89287,89100,3,Sens-2,CA du Grand Sénonais,4855,48.17778,3.25028,80,10.56
Perrigny,89295,89000,1,Auxerre-2,CA de l'Auxerrois,1254,47.81972,3.53639,130,12.86
Pont-sur-Yonne,89309,89140,3,Pont-sur-Yonne,CC Yonne Nord,3357,48.28750,3.20861,80,13.98
Pourrain,89311,89240,1,Cœur de Puisaye,CC de Puisaye-Forterre,1284,47.75639,3.41222,265,24.04
Rosoy,89326,89100,3,Sens-2,CA du Grand Sénonais,1077,48.15223,3.30946,0,0.00
Saint-Bris-le-Vineux,89337,89530,1,Auxerre-3,CA de l'Auxerrois,1024,47.74306,3.65306,170,31.32
Saint-Clément,89338,89100,3,Sens-1,CA du Grand Sénonais,2813,48.21667,3.28806,70,8.48
Saint-Fargeau,89344,89170,1,Cœur de Puisaye,CC de Puisaye-Forterre,1466,47.64083,3.07056,200,51.10
Saint-Florentin,89345,89600,1,Saint-Florentin,CC Serein et Armance,4230,48.00111,3.72694,120,28.43
Saint-Georges-sur-Baulche,89346,89000,1,Auxerre-1,CA de l'Auxerrois,3176,47.80611,3.53389,160,9.68
Saint-Julien-du-Sault,89348,89330,3,Joigny,CC du Jovinien,2202,48.03028,3.29583,90,24.11
Saint-Martin-du-Tertre,89354,89100,3,Sens-1,CA du Grand Sénonais,1553,48.21333,3.26000,80,6.85
Saint-Valérien,89370,89150,3,Gâtinais en Bourgogne,CC du Gâtinais en Bourgogne,1806,48.17861,3.09528,165,22.17
Seignelay,89382,89250,1,Saint-Florentin,CC Serein et Armance,1460,47.90306,3.60028,120,13.59
Sens,89387,89100,3,Sens,CA du Grand Sénonais,27275,48.19722,3.28583,70,27.96
Sergines,89391,89140,3,Thorigny-sur-Oreuse,CC Yonne Nord,1235,48.34222,3.26278,120,18.86
Soucy,89399,89100,3,Thorigny-sur-Oreuse,CA du Grand Sénonais,1546,48.24944,3.32472,100,21.52
Thorigny-sur-Oreuse,89414,89260,3,Thorigny-sur-Oreuse,CC Yonne Nord,1396,48.29333,3.40167,105,49.76
Tonnerre,89418,89700,2,Tonnerrois,CC Le Tonnerrois en Bourgogne,4268,47.85444,3.97583,150,58.67
Toucy,89419,89130,1,Cœur de Puisaye,CC de Puisaye-Forterre,2562,47.73500,3.29444,190,35.31
Treigny-Perreuse-Sainte-Colombe,89420,89520,1,Vincelles,CC de Puisaye-Forterre,1076,47.55083,3.18417,240,52.83
Les Vallées-de-la-Vanne,89411,89320,3,Brienon-sur-Armançon,CC de la Vanne et du Pays d'Othe,1012,48.16667,3.42639,100,11.59
Valravillon,89196,89113,1,Charny Orée de Puisaye,CC de l'Aillantais en Bourgogne,1777,47.89222,3.43972,112,11.83
Venoy,89438,89290,1,Auxerre-3,CA de l'Auxerrois,1747,47.80639,3.63861,210,23.15
Vergigny,89439,89600,1,Saint-Florentin,CC Serein et Armance,1501,47.97111,3.71833,100,33.78
Vermenton,89441,89270,1,Joux-la-Ville,CC Chablis Villages et Terroirs,1273,47.66444,3.73472,131,25.68
Véron,89443,89510,3,Villeneuve-sur-Yonne,CA du Grand Sénonais,1853,48.12861,3.30889,79,15.85
Villeblevin,89449,89340,3,Pont-sur-Yonne,CC Yonne Nord,1813,48.32333,3.08333,80,7.39
Villefargeau,89453,89240,1,Auxerre-1,CA de l'Auxerrois,1101,47.78167,3.50500,130,14.07
Villeneuve-l'Archevêque,89461,89190,3,Brienon-sur-Armançon,CC de la Vanne et du Pays d'Othe,1111,48.23389,3.55750,110,6.94
Villeneuve-la-Guyard,89460,89340,3,Pont-sur-Yonne,CC Yonne Nord,3470,48.34000,3.06472,70,16.93
Villeneuve-sur-Yonne,89464,89500,3,Villeneuve-sur-Yonne,CA du Grand Sénonais,5130,48.08028,3.29778,80,40.39
Vinneuf,89480,89140,3,Thorigny-sur-Oreuse,CC Yonne Nord,1559,48.34972,3.13639,90,15.34
Andelnans,90001,90400,1,Châtenois-les-Forges,CA Grand Belfort,1123,47.60278,6.86472,350,4.17
Bavilliers,90008,90800,1,Bavilliers,CA Grand Belfort,4641,47.61972,6.83222,356,4.74
Beaucourt,90009,90500,1,Delle,CC du Sud Territoire,4985,47.48972,6.92806,440,4.89
Belfort [3],90010,90000,1,Belfort,CA Grand Belfort,45646,47.64222,6.85583,361,17.09
Bessoncourt,90012,90160,1,Grandvillars,CA Grand Belfort,1304,47.64528,6.93389,355,7.94
Bourogne,90017,90140,1,Châtenois-les-Forges,CA Grand Belfort,1737,47.56222,6.91972,343,13.91
Châtenois-les-Forges,90022,90700,1,Châtenois-les-Forges,CA Grand Belfort,2637,47.55861,6.85000,340,8.69
Chaux,90023,90330,1,Giromagny,CC des Vosges du Sud,1181,47.71167,6.83500,420,9.35
Chèvremont,90026,90340,1,Châtenois-les-Forges,CA Grand Belfort,1566,47.62833,6.92389,350,8.77
Cravanche,90029,90300,1,Bavilliers,CA Grand Belfort,1935,47.65306,6.83028,389,1.24
Danjoutin,90032,90400,1,Bavilliers,CA Grand Belfort,3531,47.61611,6.86444,356,5.55
Delle,90033,90100,1,Delle,CC du Sud Territoire,5677,47.50833,6.99778,380,9.16
Essert,90039,90850,1,Bavilliers,CA Grand Belfort,3382,47.63389,6.81556,360,7.11
Étueffont,90041,90170,1,Giromagny,CC des Vosges du Sud,1395,47.72222,6.92028,450,12.54
Évette-Salbert,90042,90350,1,Valdoie,CA Grand Belfort,2022,47.67722,6.80083,400,9.20
Giromagny,90052,90200,1,Giromagny,CC des Vosges du Sud,2897,47.74667,6.82139,488,5.66
Grandvillars,90053,90600,1,Grandvillars,CC du Sud Territoire,2963,47.53917,6.97611,354,15.21
Joncherey,90056,90100,1,Delle,CC du Sud Territoire,1439,47.52528,7.00250,367,5.49
Lepuix,90065,90200,1,Giromagny,CC des Vosges du Sud,1113,47.75917,6.81750,514,28.35
Meroux-Moval,90068,90400,1,Châtenois-les-Forges,CA Grand Belfort,1420,47.59583,6.89639,360,8.78
Méziré,90069,90120,1,Grandvillars,CA Grand Belfort,1268,47.53500,6.91944,342,3.88
Montreux-Château,90071,90130,1,Grandvillars,CA Grand Belfort,1167,47.60917,7.00389,352,4.67
Morvillars,90072,90120,1,Grandvillars,CA Grand Belfort,1098,47.54667,6.93417,350,5.44
Offemont,90075,90300,1,Valdoie,CA Grand Belfort,4054,47.66444,6.87889,370,5.52
Pérouse,90076,90160,1,Bavilliers,CA Grand Belfort,1199,47.63694,6.89306,375,4.89
Roppe,90087,90380,1,Valdoie,CA Grand Belfort,1042,47.66945,6.91889,360,7.57
Rougemont-le-Château,90089,90110,1,Giromagny,CC des Vosges du Sud,1481,47.73556,6.96694,450,16.84
Trévenans,90097,90400,1,Châtenois-les-Forges,CA Grand Belfort,1290,47.57083,6.86333,340,6.05
Valdoie,90099,90300,1,Valdoie,CA Grand Belfort,5193,47.66722,6.84250,375,4.72
Vézelois,90104,90400,1,Châtenois-les-Forges,CA Grand Belfort,1026,47.60889,6.91472,366,9.33
